ID,bridgeId,bridgeName,assetClass,state,region,lga,latitude,longitude,condition,conditionRating,structuralAdequacyRating,postingStatus,scourRisk,lastInspectionDate,highPriorityAsset,loadRating,hmlApproved,bDoubleApproved,freightRoute,status
1,BMS-001,Sydney Harbour Bridge,Road Bridge,NSW,Sydney Metro,City of Sydney,-33.8523,151.2108,Good,8,8,Unrestricted,Low,2024-06-15,false,500,true,true,true,Active
2,BMS-002,Gladesville Bridge,Road Bridge,NSW,Sydney Metro,Hunter's Hill,-33.8397,151.1369,Fair,6,7,Unrestricted,Medium,2023-11-20,false,350,true,false,false,Active
3,BMS-003,Iron Cove Bridge,Road Bridge,NSW,Sydney Metro,Canada Bay,-33.8600,151.1500,Good,7,7,Unrestricted,Low,2024-03-10,false,300,false,false,false,Active
4,BMS-004,Parramatta Rail Bridge,Rail Bridge,NSW,Western Sydney,Parramatta,-33.8152,151.0027,Poor,4,5,Restricted,High,2023-05-01,true,200,false,false,false,Active
5,BMS-005,Hawkesbury River Bridge,Road Bridge,NSW,Central Coast,Hawkesbury,-33.5706,150.8425,Good,9,9,Unrestricted,Medium,2024-09-01,false,600,true,true,true,Active
6,BMS-006,Mulgoa Creek Bridge,Road Bridge,NSW,Western Sydney,Penrith,-33.7500,150.6800,Critical,2,2,Restricted,High,2022-08-15,true,100,false,false,false,Active
7,BMS-007,Nepean River Crossing,Road Bridge,NSW,Western Sydney,Camden,-34.0500,150.6900,Fair,5,6,Unrestricted,Medium,2024-01-20,false,250,false,true,false,Active
